volcano_id,volcano_name,latitude,longitude,province
1,Merapi,-7.5407,110.4461,DIY-Jawa Tengah
2,Semeru,-8.1080,112.9220,Jawa Timur
3,Kelud,-7.9350,112.3080,Jawa Timur
4,Sinabung,3.1700,98.3920,Sumatera Utara
5,Lewotobi,-8.5420,122.7750,NTT
6,Agung,-8.3430,115.5080,Bali
7,Rinjani,-8.4110,116.4570,NTB
8,Anak Krakatau,-6.1020,105.4230,Lampung
9,Soputan,1.1120,124.7370,Sulawesi Utara
10,Karangetang,2.7810,125.4070,Sulawesi Utara
